# Time (s),Altitude (ft),Vertical velocity (m/s),Vertical acceleration (G),Total velocity (m/s),Total acceleration (G),Position East of launch (ft),Position North of launch (ft),Lateral distance (ft),Lateral direction (°),Lateral velocity (m/s),Lateral acceleration (G),Latitude (°),Longitude (°),Gravitational acceleration (G),Angle of attack (°),Roll rate (r/s),Pitch rate (r/s),Yaw rate (r/s),Mass (kg),Motor mass (kg),Longitudinal moment of inertia (kg·m²),Rotational moment of inertia (kg·m²),CP location (m),CG location (m),Stability margin calibers (​),Mach number (​),Reynolds number (​),Thrust (N),Drag force (N),Drag coefficient (​),Axial drag coefficient (​),Friction drag coefficient (​),Pressure drag coefficient (​),Base drag coefficient (​),Normal force coefficient (​),Pitch moment coefficient (​),Yaw moment coefficient (​),Side force coefficient (​),Roll moment coefficient (​),Roll forcing coefficient (​),Roll damping coefficient (​),Pitch damping coefficient (​),Coriolis acceleration (G),Reference length (m),Reference area (m²),Vertical orientation (zenith) (°),Lateral orientation (azimuth) (°),Wind velocity (m/s),Air temperature (°C),Air pressure (mbar),Speed of sound (m/s),Simulation time step (s),Computation time (s)
# Event IGNITION occurred at t=0 seconds
# Event LAUNCH occurred at t=0 seconds
0.01,-7.524e-4,-0.046,-0.468,0.046,0.468,0,0,0,0,0,0,34,-107,0.999,90.374,0,0,0,31.054,8.058,14.854,0.073,NaN,1.692,NaN,0.02,9.794e5,161.698,-1.164e-7,0.512,-3.56e-7,0.39,0.041,0.082,NaN,NaN,NaN,NaN,NaN,NaN,NaN,NaN,5.655e-7,0.131,0.013,90,0,7.031,33.904,867.369,351.845,0.01,0.046
0.02,9.563e-4,0.058,0.595,0.058,0.595,0,0,0,0,0,0,34,-107,0.999,89.522,0,0,0,31.047,8.051,14.851,0.073,NaN,1.692,NaN,0.02,9.742e5,485.095,2.403e-7,0.513,7.43e-7,0.39,0.041,0.082,NaN,NaN,NaN,NaN,NaN,NaN,NaN,NaN,7.188e-7,0.131,0.013,90,0,6.993,33.904,867.369,351.845,0.01,0.058
0.03,0.006,0.221,1.657,0.221,1.657,0,0,0,0,0,0,34,-107,0.999,88.182,0,0,0,31.041,8.045,14.848,0.073,NaN,1.692,NaN,0.02,9.694e5,808.492,1.295e-5,0.513,4.045e-5,0.39,0.041,0.082,NaN,NaN,NaN,NaN,NaN,NaN,NaN,NaN,2.722e-6,0.131,0.013,90,0,6.955,33.904,867.369,351.845,0.01,0.067
0.04,0.017,0.488,2.721,0.488,2.721,0,0,0,0,0,0,34,-107,0.999,85.969,0,0,0,31.034,8.038,14.845,0.073,NaN,1.692,NaN,0.02,9.661e5,1131.889,1.37e-4,0.513,4.309e-4,0.391,0.041,0.082,NaN,NaN,NaN,NaN,NaN,NaN,NaN,NaN,6.011e-6,0.131,0.013,90,0,6.918,33.904,867.369,351.845,0.01,0.072
0.05,0.039,0.859,3.784,0.859,3.784,0,0,0,0,0,0,34,-107,0.999,82.887,0,0,0,31.028,8.032,14.842,0.073,NaN,1.692,NaN,0.02,9.659e5,1455.286,7.276e-4,0.513,0.002,0.391,0.041,0.082,NaN,NaN,NaN,NaN,NaN,NaN,NaN,NaN,1.059e-5,0.131,0.013,90,0,6.88,33.904,867.368,351.845,0.01,0.077
# Event LIFTOFF occurred at t=0.06 seconds
0.06,0.075,1.334,4.848,1.334,4.848,0,0,0,0,0,0,34,-107,0.999,79.021,0,0,0,31.021,8.025,14.839,0.073,NaN,1.692,NaN,0.02,9.757e5,1778.683,0.003,0.512,0.008,0.39,0.041,0.082,NaN,NaN,NaN,NaN,NaN,NaN,NaN,NaN,1.645e-5,0.131,0.013,90,0,6.876,33.904,867.368,351.845,0.01,0.082
0.07,0.128,1.914,5.913,1.914,5.913,0,0,0,0,0,0,34,-107,0.999,74.438,0,0,0,31.015,8.019,14.836,0.073,NaN,1.692,NaN,0.02,9.937e5,2102.08,0.007,0.511,0.022,0.388,0.041,0.082,NaN,NaN,NaN,NaN,NaN,NaN,NaN,NaN,2.36e-5,0.131,0.013,90,0,6.872,33.904,867.367,351.845,0.01,0.088
0.08,0.202,2.598,6.978,2.598,6.978,0,0,0,0,0,0,34,-107,0.999,69.278,0,0,0,31.008,8.012,14.834,0.073,NaN,1.691,NaN,0.021,1.023e6,2425.477,0.017,0.509,0.048,0.386,0.041,0.082,NaN,NaN,NaN,NaN,NaN,NaN,NaN,NaN,3.203e-5,0.131,0.013,90,0,6.867,33.904,867.365,351.845,0.01,0.093
0.09,0.3,3.354,7.712,3.354,7.712,0,0,0,0,0,0,34,-107,0.999,63.955,0,0,0,30.997,8.001,14.828,0.073,NaN,1.691,NaN,0.022,1.064e6,2647.848,0.034,0.506,0.088,0.383,0.041,0.082,NaN,NaN,NaN,NaN,NaN,NaN,NaN,NaN,4.135e-5,0.131,0.013,90,0,6.863,33.904,867.363,351.845,0.01,0.1
0.1,0.423,4.115,7.762,4.115,7.762,0,0,0,0,0,0,34,-107,0.999,59.038,0,0,0,30.983,7.987,14.822,0.073,NaN,1.691,NaN,0.023,1.114e6,2661.853,0.058,0.502,0.136,0.38,0.041,0.082,NaN,NaN,NaN,NaN,NaN,NaN,NaN,NaN,5.074e-5,0.131,0.013,90,0,6.859,33.904,867.361,351.844,0.01,0.107
0.11,0.57,4.879,7.791,4.879,7.791,0,0,0,0,0,0,34,-107,0.999,54.58,0,0,0,30.97,7.974,14.816,0.073,NaN,1.691,NaN,0.024,1.173e6,2669.543,0.088,0.499,0.188,0.376,0.041,0.082,NaN,NaN,NaN,NaN,NaN,NaN,NaN,NaN,6.015e-5,0.131,0.013,90,0,6.86,33.903,867.359,351.844,0.01,0.115
0.12,0.743,5.646,7.82,5.646,7.82,0,0,0,0,0,0,34,-107,0.999,50.553,0,0,0,30.957,7.961,14.81,0.073,NaN,1.69,NaN,0.025,1.238e6,2677.233,0.126,0.495,0.241,0.372,0.041,0.082,NaN,NaN,NaN,NaN,NaN,NaN,NaN,NaN,6.961e-5,0.131,0.013,90,0,6.862,33.903,867.355,351.844,0.01,0.123
0.13,0.941,6.415,7.849,6.415,7.849,0,0,0,0,0,0,34,-107,0.999,46.931,0,0,0,30.944,7.948,14.805,0.073,NaN,1.69,NaN,0.027,1.309e6,2684.924,0.171,0.491,0.292,0.368,0.041,0.082,NaN,NaN,NaN,NaN,NaN,NaN,NaN,NaN,7.909e-5,0.131,0.013,90,0,6.863,33.903,867.352,351.844,0.01,0.13
0.14,1.164,7.187,7.878,7.187,7.878,0,0,0,0,0,0,34,-107,0.999,43.682,0,0,0,30.931,7.934,14.799,0.073,NaN,1.69,NaN,0.028,1.384e6,2692.614,0.221,0.487,0.339,0.364,0.041,0.082,NaN,NaN,NaN,NaN,NaN,NaN,NaN,NaN,8.862e-5,0.131,0.013,90,0,6.864,33.902,867.348,351.844,0.01,0.138
0.15,1.412,7.963,7.907,7.963,7.907,0,0,0,0,0,0,34,-107,0.999,40.768,0,0,0,30.917,7.921,14.793,0.072,NaN,1.69,NaN,0.03,1.465e6,2700.305,0.278,0.483,0.381,0.361,0.041,0.082,NaN,NaN,NaN,NaN,NaN,NaN,NaN,NaN,9.817e-5,0.131,0.013,90,0,6.865,33.902,867.343,351.843,0.01,0.142
0.16,1.686,8.741,7.936,8.741,7.936,0,0,0,0,0,0,34,-107,0.999,38.197,0,0,0,30.904,7.908,14.787,0.072,NaN,1.689,NaN,0.032,1.549e6,2707.995,0.341,0.479,0.417,0.357,0.041,0.082,NaN,NaN,NaN,NaN,NaN,NaN,NaN,NaN,1.078e-4,0.131,0.013,90,0,6.878,33.901,867.338,351.843,0.01,0.15
0.17,1.986,9.522,7.965,9.522,7.965,0,0,0,0,0,0,34,-107,0.999,35.889,0,0,0,30.891,7.895,14.781,0.072,NaN,1.689,NaN,0.033,1.637e6,2715.685,0.409,0.476,0.447,0.353,0.041,0.082,NaN,NaN,NaN,NaN,NaN,NaN,NaN,NaN,1.174e-4,0.131,0.013,90,0,6.89,33.901,867.333,351.843,0.01,0.156
0.18,2.311,10.305,7.994,10.305,7.994,0,0,0,0,0,0,34,-107,0.999,33.811,0,0,0,30.878,7.882,14.775,0.072,NaN,1.689,NaN,0.035,1.728e6,2723.376,0.482,0.472,0.473,0.35,0.041,0.082,NaN,NaN,NaN,NaN,NaN,NaN,NaN,NaN,1.271e-4,0.131,0.013,90,0,6.902,33.9,867.327,351.842,0.01,0.16
0.19,2.662,11.092,8.023,11.092,8.023,0,0,0,0,0,0,34,-107,0.999,31.936,0,0,0,30.864,7.868,14.769,0.072,NaN,1.688,NaN,0.037,1.821e6,2731.066,0.559,0.469,0.495,0.346,0.041,0.082,NaN,NaN,NaN,NaN,NaN,NaN,NaN,NaN,1.368e-4,0.131,0.013,90,0,6.914,33.9,867.32,351.842,0.01,0.166
0.2,3.039,11.881,8.052,11.881,8.052,0,0,0,0,0,0,34,-107,0.999,30.239,0,0,0,30.851,7.855,14.763,0.072,NaN,1.688,NaN,0.039,1.916e6,2738.757,0.641,0.466,0.513,0.343,0.041,0.082,NaN,NaN,NaN,NaN,NaN,NaN,NaN,NaN,1.465e-4,0.131,0.013,90,0,6.926,33.899,867.313,351.842,0.01,0.171
0.21,3.442,12.674,8.081,12.674,8.081,0,0,0,0,0,0,34,-107,0.999,28.736,0,0,0,30.838,7.842,14.757,0.072,NaN,1.688,NaN,0.041,2.013e6,2746.447,0.728,0.463,0.527,0.34,0.041,0.082,NaN,NaN,NaN,NaN,NaN,NaN,NaN,NaN,1.563e-4,0.131,0.013,90,0,6.949,33.898,867.306,351.841,0.01,0.176
0.22,3.871,13.469,8.11,13.469,8.11,0,0,0,0,0,0,34,-107,0.999,27.367,0,0,0,30.825,7.829,14.751,0.072,NaN,1.688,NaN,0.043,2.113e6,2754.138,0.819,0.46,0.538,0.337,0.041,0.082,NaN,NaN,NaN,NaN,NaN,NaN,NaN,NaN,1.661e-4,0.131,0.013,90,0,6.972,33.897,867.298,351.841,0.01,0.183
0.23,4.326,14.267,8.139,14.267,8.139,0,0,0,0,0,0,34,-107,0.999,26.117,0,0,0,30.812,7.815,14.745,0.072,NaN,1.687,NaN,0.045,2.213e6,2761.828,0.913,0.457,0.547,0.334,0.041,0.082,NaN,NaN,NaN,NaN,NaN,NaN,NaN,NaN,1.759e-4,0.131,0.013,90,0,6.995,33.897,867.29,351.84,0.01,0.19
0.24,4.807,15.067,8.168,15.067,8.168,0,0,0,0,0,0,34,-107,0.999,24.973,0,0,0,30.798,7.802,14.739,0.072,NaN,1.687,NaN,0.047,2.315e6,2769.518,1.018,0.457,0.557,0.334,0.041,0.082,NaN,NaN,NaN,NaN,NaN,NaN,NaN,NaN,1.858e-4,0.131,0.013,90,0,7.017,33.896,867.281,351.84,0.01,0.196
0.25,5.314,15.871,8.197,15.871,8.197,0,0,0,0,0,0,34,-107,0.999,23.922,0,0,0,30.785,7.789,14.733,0.072,NaN,1.687,NaN,0.049,2.419e6,2777.182,1.127,0.457,0.566,0.334,0.041,0.082,NaN,NaN,NaN,NaN,NaN,NaN,NaN,NaN,1.957e-4,0.131,0.013,90,0,7.04,33.895,867.272,351.839,0.01,0.203
0.26,5.848,16.677,8.216,16.677,8.216,0,0,0,0,0,0,34,-107,0.999,22.746,0,0,0,30.771,7.775,14.727,0.072,NaN,1.687,NaN,0.051,2.519e6,2781.738,1.241,0.457,0.574,0.334,0.041,0.082,NaN,NaN,NaN,NaN,NaN,NaN,NaN,NaN,2.056e-4,0.131,0.013,90,0,6.992,33.894,867.262,351.839,0.01,0.208
0.27,6.409,17.483,8.227,17.483,8.227,0,0,0,0,0,0,34,-107,0.999,21.66,0,0,0,30.758,7.762,14.721,0.072,NaN,1.686,NaN,0.053,2.62e6,2784.16,1.358,0.457,0.58,0.334,0.041,0.082,NaN,NaN,NaN,NaN,NaN,NaN,NaN,NaN,2.156e-4,0.131,0.013,90,0,6.943,33.893,867.252,351.838,0.01,0.216
0.28,6.995,18.291,8.239,18.291,8.239,0,0,0,0,0,0,34,-107,0.999,20.654,0,0,0,30.744,7.748,14.715,0.072,NaN,1.686,NaN,0.056,2.723e6,2786.582,1.479,0.457,0.585,0.334,0.041,0.082,NaN,NaN,NaN,NaN,NaN,NaN,NaN,NaN,2.255e-4,0.131,0.013,90,0,6.895,33.892,867.241,351.837,0.01,0.221
0.29,7.609,19.1,8.251,19.1,8.251,0,0,0,0,0,0,34,-107,0.999,19.72,0,0,0,30.731,7.734,14.708,0.072,NaN,1.686,NaN,0.058,2.826e6,2789.004,1.603,0.457,0.589,0.334,0.041,0.082,NaN,NaN,NaN,NaN,NaN,NaN,NaN,NaN,2.355e-4,0.131,0.013,90,0,6.846,33.891,867.23,351.837,0.01,0.225
0.3,8.249,19.91,8.262,19.91,8.262,0,0,0,0,0,0,34,-107,0.999,18.851,0,0,0,30.717,7.721,14.702,0.072,NaN,1.685,NaN,0.06,2.93e6,2791.426,1.731,0.457,0.592,0.334,0.041,0.082,NaN,NaN,NaN,NaN,NaN,NaN,NaN,NaN,2.455e-4,0.131,0.013,90,0,6.798,33.89,867.218,351.836,0.01,0.229
0.31,8.915,20.721,8.274,20.721,8.274,0,0,0,0,0,0,34,-107,0.999,18.194,0,0,0,30.703,7.707,14.696,0.072,NaN,1.685,NaN,0.062,3.038e6,2793.848,1.865,0.457,0.593,0.334,0.041,0.082,NaN,NaN,NaN,NaN,NaN,NaN,NaN,NaN,2.555e-4,0.131,0.013,90,0,6.81,33.889,867.206,351.835,0.01,0.233
0.32,9.608,21.534,8.286,21.534,8.286,0,0,0,0,0,0,34,-107,0.999,17.581,0,0,0,30.69,7.694,14.69,0.072,NaN,1.685,NaN,0.064,3.146e6,2796.27,2.003,0.457,0.594,0.334,0.041,0.082,NaN,NaN,NaN,NaN,NaN,NaN,NaN,NaN,2.655e-4,0.131,0.013,90,0,6.823,33.887,867.194,351.835,0.01,0.238
0.33,10.328,22.347,8.298,22.347,8.298,0,0,0,0,0,0,34,-107,0.999,17.007,0,0,0,30.676,7.68,14.684,0.072,NaN,1.685,NaN,0.066,3.255e6,2798.692,2.144,0.457,0.594,0.334,0.041,0.082,NaN,NaN,NaN,NaN,NaN,NaN,NaN,NaN,2.755e-4,0.131,0.013,90,0,6.835,33.886,867.18,351.834,0.01,0.242
0.34,11.075,23.162,8.309,23.162,8.309,0,0,0,0,0,0,34,-107,0.999,16.471,0,0,0,30.662,7.666,14.677,0.072,NaN,1.684,NaN,0.069,3.364e6,2801.115,2.289,0.457,0.593,0.334,0.041,0.082,NaN,NaN,NaN,NaN,NaN,NaN,NaN,NaN,2.856e-4,0.131,0.013,90,0,6.848,33.885,867.167,351.833,0.01,0.246
0.35,11.848,23.978,8.321,23.978,8.321,0,0,0,0,0,0,34,-107,0.999,15.967,0,0,0,30.649,7.653,14.671,0.072,NaN,1.684,NaN,0.071,3.474e6,2803.537,2.436,0.457,0.592,0.334,0.041,0.082,NaN,NaN,NaN,NaN,NaN,NaN,NaN,NaN,2.956e-4,0.131,0.013,90,0,6.86,33.883,867.153,351.832,0.01,0.254
0.36,12.648,24.795,8.333,24.795,8.333,0,0,0,0,0,0,34,-107,0.999,15.506,0,0,0,30.635,7.639,14.665,0.072,NaN,1.684,NaN,0.073,3.584e6,2805.959,2.587,0.457,0.591,0.334,0.041,0.082,NaN,NaN,NaN,NaN,NaN,NaN,NaN,NaN,3.057e-4,0.131,0.013,90,0,6.879,33.882,867.138,351.831,0.01,0.258
0.37,13.475,25.613,8.344,25.613,8.344,0,0,0,0,0,0,34,-107,0.999,15.073,0,0,0,30.622,7.625,14.659,0.072,NaN,1.683,NaN,0.075,3.695e6,2808.381,2.74,0.457,0.589,0.334,0.041,0.082,NaN,NaN,NaN,NaN,NaN,NaN,NaN,NaN,3.158e-4,0.131,0.013,90,0,6.898,33.88,867.123,351.83,0.01,0.262
0.38,14.329,26.432,8.356,26.432,8.356,0,0,0,0,0,0,34,-107,0.999,14.664,0,0,0,30.608,7.612,14.652,0.072,NaN,1.683,NaN,0.078,3.805e6,2810.803,2.897,0.457,0.587,0.334,0.041,0.082,NaN,NaN,NaN,NaN,NaN,NaN,NaN,NaN,3.259e-4,0.131,0.013,90,0,6.917,33.879,867.107,351.83,0.01,0.266
0.39,15.209,27.252,8.368,27.252,8.368,0,0,0,0,0,0,34,-107,0.999,14.278,0,0,0,30.594,7.598,14.646,0.072,NaN,1.683,NaN,0.08,3.917e6,2813.225,3.056,0.457,0.585,0.334,0.041,0.082,NaN,NaN,NaN,NaN,NaN,NaN,NaN,NaN,3.36e-4,0.131,0.013,90,0,6.936,33.877,867.091,351.829,0.01,0.269
0.4,16.117,28.074,8.379,28.074,8.379,0,0,0,0,0,0,34,-107,0.999,13.913,0,0,0,30.581,7.585,14.64,0.072,NaN,1.683,NaN,0.082,4.028e6,2815.647,3.219,0.457,0.582,0.334,0.041,0.082,NaN,NaN,NaN,NaN,NaN,NaN,NaN,NaN,3.461e-4,0.131,0.013,90,0,6.954,33.876,867.075,351.828,0.01,0.273
0.41,17.052,28.897,8.391,28.897,8.391,0,0,0,0,0,0,34,-107,0.999,13.503,0,0,0,30.567,7.571,14.634,0.072,NaN,1.682,NaN,0.084,4.139e6,2818.069,3.381,0.457,0.579,0.334,0.041,0.082,NaN,NaN,NaN,NaN,NaN,NaN,NaN,NaN,3.563e-4,0.131,0.013,90,0,6.939,33.874,867.058,351.827,0.01,0.277
0.42,18.013,29.721,8.403,29.721,8.403,0,0,0,0,0,0,34,-107,0.999,13.113,0,0,0,30.553,7.557,14.627,0.072,NaN,1.682,NaN,0.087,4.25e6,2820.404,3.546,0.457,0.576,0.334,0.041,0.082,NaN,NaN,NaN,NaN,NaN,NaN,NaN,NaN,3.664e-4,0.131,0.013,90,0,6.924,33.872,867.04,351.826,0.01,0.282
# Event LAUNCHROD occurred at t=0.43 seconds
0.43,19.002,30.545,8.411,30.545,8.411,0,0,0,0,0,0,34,-107,0.999,12.744,0,0,0,30.54,7.543,14.621,0.072,NaN,1.682,NaN,0.089,4.362e6,2821.934,3.713,0.457,0.573,0.334,0.041,0.082,NaN,NaN,NaN,NaN,NaN,NaN,NaN,NaN,3.766e-4,0.131,0.013,90,0,6.908,33.871,867.022,351.825,0.01,0.287
0.445,20.536,31.784,8.423,31.784,8.423,-2.326e-4,0,2.326e-4,-180,0.009,0.065,34,-107,0.999,12.206,0,7.38e-5,4.395e-8,30.519,7.523,14.612,0.072,1.707,1.681,0.198,0.092,4.529e6,2823.601,3.969,0.457,0.568,0.334,0.041,0.082,2.763,0.548,-3.284e-4,0,0,0,0,8.75e-7,3.919e-4,0.131,0.013,90,-0.017,6.885,33.868,866.994,351.823,0.015,0.29
0.468,22.95,33.645,8.439,33.645,8.44,-0.001,0,0.001,-180,0.024,0.064,34,-107,0.999,11.207,0,2.169e-4,1.663e-8,30.488,7.492,14.597,0.072,1.716,1.681,0.269,0.097,4.777e6,2826.102,4.335,0.457,0.557,0.334,0.041,0.083,2.451,0.659,-2.168e-4,0,0,0,0,6.796e-6,4.148e-4,0.131,0.013,89.999,-0.009,6.691,33.864,866.95,351.82,0.023,0.293
0.501,26.831,36.444,8.464,36.444,8.465,-0.005,-1.209e-8,0.005,-180,0.044,0.061,34,-107,0.999,9.806,0,5.101e-4,2.478e-8,30.441,7.445,14.576,0.072,1.729,1.68,0.378,0.105,5.151e6,2829.854,4.897,0.457,0.542,0.334,0.041,0.083,2.038,0.771,-1.892e-4,0,0,0,0,3.231e-5,4.493e-4,0.131,0.013,89.994,-0.003,6.347,33.857,866.879,351.816,0.034,0.298
0.551,33.151,40.608,8.501,40.608,8.501,-0.015,-5.35e-8,0.015,-180,0.075,0.065,34,-107,0.999,8.964,0,0.001,-3.233e-7,30.372,7.376,14.544,0.072,1.738,1.678,0.457,0.117,5.725e6,2835.44,5.941,0.458,0.532,0.333,0.041,0.083,1.805,0.825,-3.608e-4,0,0,0,0,1.189e-4,5.007e-4,0.131,0.013,89.98,0.002,6.495,33.846,866.764,351.809,0.05,0.304
0.601,40.155,44.791,8.54,44.791,8.54,-0.03,-1.388e-7,0.03,-180,0.109,0.073,34,-107,0.999,8.807,0,0.002,-3.762e-7,30.303,7.307,14.512,0.072,1.74,1.677,0.482,0.129,6.312e6,2841.76,7.2,0.458,0.53,0.333,0.041,0.083,1.763,0.85,-3.174e-4,0,0,0,0,2.766e-4,5.522e-4,0.131,0.013,89.954,0.003,7.086,33.833,866.636,351.802,0.05,0.311
0.651,47.847,48.987,8.566,48.987,8.566,-0.051,-2.713e-7,0.051,-180,0.146,0.073,34,-107,0.999,8.179,0,0.003,-5.657e-7,30.234,7.238,14.48,0.072,1.747,1.675,0.549,0.141,6.892e6,2844.234,8.466,0.458,0.523,0.333,0.041,0.083,1.597,0.876,4.3e-4,0,0,0,0,5.253e-4,6.04e-4,0.131,0.013,89.913,0.003,7.262,33.82,866.496,351.794,0.05,0.317
0.701,56.227,53.194,8.588,53.194,8.589,-0.078,-4.319e-7,0.078,-180,0.179,0.062,34,-107,0.999,7.147,0,0.004,-2.852e-7,30.165,7.169,14.447,0.072,1.76,1.674,0.657,0.152,7.466e6,2845.649,9.705,0.458,0.511,0.333,0.041,0.084,1.338,0.878,-1.914e-4,0,0,0,0,8.828e-4,6.558e-4,0.131,0.013,89.854,0.004,6.987,33.805,866.343,351.785,0.05,0.321
0.751,65.299,57.411,8.61,57.412,8.611,-0.11,-5.544e-7,0.11,-180,0.208,0.054,34,-107,0.999,6.636,0,0.005,-7.845e-7,30.096,7.1,14.415,0.072,1.766,1.672,0.72,0.164,8.05e6,2847.064,11.158,0.459,0.505,0.333,0.042,0.084,1.216,0.874,-2.36e-4,0,0,0,0,0.001,7.078e-4,0.131,0.013,89.773,0.004,7.117,33.789,866.177,351.775,0.05,0.324
0.801,75.064,61.64,8.632,61.64,8.632,-0.145,-5.91e-7,0.145,-180,0.229,0.033,34,-107,0.999,5.82,0,0.007,-4.901e-7,30.026,7.03,14.382,0.071,1.778,1.671,0.819,0.176,8.629e6,2848.287,12.6,0.459,0.496,0.333,0.042,0.084,1.029,0.841,-3.02e-4,0,0,0,0,0.002,7.6e-4,0.131,0.013,89.667,0.004,6.874,33.771,865.999,351.764,0.05,0.328
0.851,85.523,65.878,8.652,65.879,8.652,-0.184,-4.56e-7,0.184,-180,0.24,0.009,34,-107,0.999,5.157,0,0.008,1.225e-8,29.957,6.961,14.349,0.071,1.788,1.669,0.908,0.188,9.213e6,2849.32,14.169,0.459,0.49,0.333,0.042,0.085,0.885,0.8,-3.394e-4,0,0,0,0,0.003,8.122e-4,0.131,0.013,89.533,0.003,6.727,33.753,865.808,351.753,0.05,0.333
0.901,96.678,70.126,8.672,70.127,8.672,-0.224,-5.999e-8,0.224,-180,0.239,0.014,34,-107,0.999,4.854,0,0.01,5.8e-7,29.888,6.891,14.316,0.071,1.793,1.668,0.957,0.2,9.804e6,2850.353,15.958,0.46,0.487,0.333,0.042,0.085,0.822,0.783,4.41e-4,0,0,0,0,0.003,8.646e-4,0.131,0.013,89.369,0.003,6.973,33.733,865.604,351.741,0.05,0.336
0.951,108.531,74.385,8.692,74.385,8.692,-0.262,6.342e-7,0.262,180,0.224,0.05,34,-107,0.999,4.305,0,0.012,-2.211e-8,29.818,6.822,14.283,0.071,1.802,1.666,1.039,0.212,1.039e7,2851.392,17.753,0.46,0.482,0.332,0.042,0.086,0.71,0.733,-5.018e-5,0,0,0,0,0.004,9.171e-4,0.131,0.013,89.172,0.002,6.906,33.712,865.388,351.729,0.05,0.339
1.001,121.083,78.652,8.711,78.652,8.712,-0.296,1.563e-6,0.296,180,0.19,0.088,34,-107,0.999,3.984,0,0.014,1.308e-6,29.749,6.753,14.249,0.071,1.808,1.665,1.094,0.224,1.098e7,2852.451,19.739,0.46,0.48,0.332,0.042,0.086,0.647,0.703,-4.595e-4,0,0,0,0,0.005,9.697e-4,0.131,0.013,88.938,9.314e-4,7.134,33.69,865.159,351.715,0.05,0.342
1.051,134.336,82.929,8.73,82.929,8.731,-0.323,2.633e-6,0.323,180,0.135,0.139,34,-107,0.999,3.462,-5.478e-9,0.016,-3.274e-7,29.679,6.683,14.216,0.071,1.817,1.663,1.179,0.237,1.158e7,2853.512,21.745,0.461,0.476,0.332,0.042,0.087,0.548,0.64,1.608e-4,0,0,0,0,0.006,0.001,0.131,0.013,88.668,7.111e-5,7.09,33.667,864.917,351.701,0.05,0.346
1.101,148.291,87.215,8.748,87.215,8.751,-0.339,3.605e-6,0.339,179.999,0.053,0.197,34,-107,0.999,3.009,0,0.018,-6.772e-7,29.61,6.614,14.182,0.071,1.826,1.662,1.258,0.249,1.217e7,2854.633,23.889,0.461,0.473,0.332,0.042,0.087,0.466,0.579,4.821e-4,0,0,0,0,0.007,0.001,0.131,0.013,88.358,-2.352e-4,7.148,33.642,864.662,351.686,0.05,0.352
1.151,162.95,91.511,8.768,91.511,8.772,-0.339,4.429e-6,0.339,179.999,0.059,0.262,34,-107,0.999,2.605,5.425e-9,0.02,7.683e-7,29.54,6.544,14.148,0.071,1.834,1.66,1.333,0.261,1.277e7,2856.486,26.167,0.462,0.471,0.332,0.043,0.088,0.395,0.519,3.986e-4,0,0,0,0,0.008,0.001,0.131,0.013,88.01,-2.411e-4,7.295,33.616,864.394,351.67,0.05,0.355
1.201,178.315,95.817,8.788,95.818,8.795,-0.317,5.213e-6,0.317,179.999,0.208,0.344,34,-107,0.999,1.977,0,0.022,-2.756e-7,29.471,6.475,14.114,0.071,1.848,1.658,1.447,0.273,1.336e7,2858.555,28.476,0.462,0.468,0.331,0.043,0.088,0.29,0.41,-4.575e-4,0,0,0,0,0.009,0.001,0.131,0.013,87.624,-5.042e-5,7.084,33.589,864.114,351.654,0.05,0.359
1.251,194.387,100.133,8.806,100.133,8.817,-0.268,6.085e-6,0.268,179.999,0.397,0.43,34,-107,0.999,1.445,-9.021e-9,0.024,-1.477e-6,29.401,6.405,14.08,0.071,1.86,1.657,1.552,0.286,1.396e7,2860.624,30.962,0.463,0.466,0.331,0.043,0.089,0.206,0.309,-2.91e-4,0,0,0,0,0.01,0.001,0.131,0.013,87.205,1.372e-4,7.024,33.56,863.821,351.636,0.05,0.362
1.301,211.167,104.454,8.818,104.456,8.833,-0.185,7.258e-6,0.185,179.998,0.63,0.521,34,-107,0.999,0.962,0,0.025,2.424e-8,29.332,6.336,14.046,0.071,1.872,1.655,1.654,0.298,1.456e7,2861.17,33.61,0.464,0.465,0.331,0.043,0.09,0.133,0.211,3.357e-4,0,0,0,0,0.01,0.001,0.131,0.013,86.759,1.328e-4,7.044,33.531,863.514,351.618,0.05,0.366
1.351,228.657,108.778,8.822,108.781,8.844,-0.059,9.02e-6,0.059,179.991,0.91,0.621,34,-107,0.999,0.372,-6.328e-9,0.026,-5.23e-7,29.262,6.266,14.012,0.071,1.887,1.654,1.782,0.31,1.515e7,2860.098,36.391,0.464,0.464,0.331,0.043,0.09,0.05,0.079,4.315e-4,0,0,0,0,0.01,0.001,0.131,0.013,86.293,2.454e-4,6.844,33.5,863.195,351.6,0.05,0.369
1.401,246.856,113.103,8.824,113.11,8.854,0.117,1.165e-5,0.117,0.006,1.24,0.724,34,-107,0.999,0.194,-7.943e-9,-0.026,-6.018e-8,29.192,6.196,13.977,0.07,1.892,1.652,1.833,0.322,1.575e7,2859.026,39.363,0.465,0.465,0.33,0.043,0.091,0.026,0.057,-4.019e-4,0,0,0,0,-0.009,0.001,0.131,0.013,85.819,6.051e-4,6.64,33.467,862.863,351.58,0.05,0.373
1.451,265.764,117.429,8.824,117.44,8.862,0.35,1.58e-5,0.35,0.003,1.619,0.823,34,-107,0.999,0.587,6.081e-9,-0.026,-9.441e-7,29.123,6.127,13.942,0.07,1.882,1.651,1.772,0.335,1.635e7,2857.751,42.526,0.465,0.466,0.33,0.044,0.092,0.08,0.15,4.096e-5,0,0,0,0,-0.008,0.001,0.131,0.013,85.351,0.001,6.716,33.434,862.518,351.56,0.05,0.376
1.501,285.382,121.753,8.821,121.77,8.868,0.65,2.258e-5,0.65,0.002,2.045,0.913,34,-107,0.999,0.81,1.21e-8,-0.024,-3.076e-6,29.053,6.057,13.908,0.07,1.877,1.649,1.746,0.347,1.696e7,2855.715,45.838,0.466,0.467,0.33,0.044,0.092,0.112,0.202,-2.885e-4,0,0,0,0,-0.007,0.002,0.131,0.013,84.901,0.002,7.084,33.399,862.159,351.539,0.05,0.38
1.551,305.709,126.075,8.816,126.1,8.873,1.024,3.323e-5,1.024,0.002,2.515,1.005,34,-107,0.999,1.111,-1.433e-8,-0.023,2.865e-6,28.984,5.988,13.873,0.07,1.871,1.647,1.707,0.36,1.756e7,2853.606,49.309,0.467,0.469,0.33,0.044,0.093,0.156,0.272,-2.261e-5,0,0,0,0,-0.005,0.002,0.131,0.013,84.478,0.002,7.208,33.363,861.788,351.517,0.05,0.385
1.601,326.745,130.395,8.809,130.43,8.878,1.478,4.91e-5,1.478,0.002,3.032,1.102,34,-107,0.999,1.548,-2.002e-8,-0.02,4.127e-6,28.915,5.918,13.837,0.07,1.861,1.646,1.647,0.372,1.815e7,2851.506,52.978,0.468,0.471,0.329,0.044,0.094,0.223,0.371,4.644e-4,0,0,0,0,-0.004,0.002,0.131,0.013,84.095,0.003,6.9,33.326,861.404,351.494,0.05,0.389
1.651,348.489,134.711,8.804,134.759,8.883,2.021,7.162e-5,2.021,0.002,3.591,1.179,34,-107,0.999,1.762,1.753e-8,-0.016,-3.807e-6,28.845,5.849,13.802,0.07,1.857,1.644,1.627,0.384,1.875e7,2849.537,56.745,0.468,0.473,0.329,0.045,0.095,0.257,0.421,-3.615e-5,0,0,0,0,-0.003,0.002,0.131,0.013,83.767,0.003,6.941,33.288,861.008,351.471,0.05,0.392
1.701,370.941,139.025,8.798,139.088,8.887,2.658,1.023e-4,2.658,0.002,4.188,1.254,34,-107,0.999,2.087,0,-0.012,1.719e-6,28.776,5.78,13.767,0.07,1.85,1.642,1.59,0.397,1.935e7,2847.614,60.712,0.469,0.475,0.329,0.045,0.096,0.311,0.495,-4.482e-4,0,0,0,0,-0.001,0.002,0.131,0.013,83.509,0.003,6.514,33.248,860.598,351.447,0.05,0.396
1.751,394.101,143.336,8.796,143.417,8.891,3.396,1.425e-4,3.396,0.002,4.814,1.294,34,-107,0.999,2.097,5.354e-9,-0.007,-5.883e-7,28.707,5.711,13.731,0.07,1.851,1.641,1.606,0.409,1.995e7,2845.69,64.661,0.47,0.476,0.328,0.045,0.097,0.313,0.502,3.128e-4,0,0,0,0,-4.153e-4,0.002,0.131,0.013,83.336,0.004,6.633,33.207,860.175,351.422,0.05,0.401
1.801,417.967,147.646,8.793,147.747,8.89,4.238,1.938e-4,4.238,0.003,5.454,1.314,34,-107,0.999,2.057,0,-0.002,3.156e-6,28.638,5.641,13.696,0.07,1.852,1.639,1.63,0.422,2.054e7,2842.795,68.695,0.471,0.476,0.328,0.045,0.097,0.306,0.499,3.134e-4,0,0,0,0,-2.44e-5,0.002,0.131,0.013,83.256,0.004,6.65,33.165,859.739,351.397,0.05,0.404
1.851,442.541,151.952,8.788,152.075,8.885,5.186,2.575e-4,5.186,0.003,6.098,1.309,34,-107,0.999,1.932,0,0.004,4.831e-6,28.569,5.572,13.66,0.07,1.856,1.637,1.668,0.434,2.114e7,2838.701,72.789,0.472,0.477,0.328,0.046,0.098,0.286,0.477,-2.794e-4,0,0,0,0,1.034e-4,0.002,0.131,0.013,83.274,0.004,6.644,33.121,859.291,351.37,0.05,0.407
1.901,467.82,156.257,8.786,156.402,8.878,6.239,3.344e-4,6.239,0.003,6.733,1.277,34,-107,0.999,1.705,0,0.009,2.669e-6,28.499,5.503,13.624,0.07,1.861,1.636,1.724,0.446,2.174e7,2834.604,76.935,0.472,0.476,0.327,0.046,0.099,0.25,0.43,2.09e-4,0,0,0,0,5.869e-4,0.002,0.131,0.013,83.392,0.005,6.672,33.076,858.829,351.343,0.05,0.41
1.951,493.806,160.561,8.786,160.729,8.869,7.394,4.255e-4,7.394,0.003,7.343,1.211,34,-107,0.999,1.308,2.03e-8,0.014,8.843e-6,28.431,5.435,13.588,0.07,1.871,1.634,1.811,0.459,2.234e7,2829.868,81.127,0.473,0.476,0.327,0.046,0.1,0.188,0.338,5.063e-5,0,0,0,0,0.001,0.002,0.131,0.013,83.603,0.005,6.957,33.03,858.355,351.315,0.05,0.413
2.001,520.497,164.86,8.774,165.05,8.849,8.646,5.319e-4,8.646,0.004,7.921,1.147,34,-107,0.999,1.126,1.753e-8,0.018,9.181e-6,28.362,5.366,13.553,0.069,1.876,1.632,1.862,0.471,2.292e7,2822.362,85.52,0.474,0.476,0.326,0.046,0.101,0.16,0.296,-4.661e-4,0,0,0,0,0.002,0.002,0.131,0.013,83.897,0.006,6.438,32.983,857.868,351.287,0.05,0.417
2.051,547.893,169.153,8.767,169.364,8.827,9.99,6.545e-4,9.99,0.004,8.455,1.03,34,-107,0.999,0.532,-7.961e-9,0.022,2.421e-5,28.294,5.297,13.517,0.069,1.891,1.631,1.993,0.484,2.352e7,2814.535,89.981,0.475,0.476,0.326,0.047,0.102,0.073,0.143,-3.959e-4,0,0,0,0,0.003,0.002,0.131,0.013,84.259,0.007,6.975,32.935,857.368,351.257,0.05,0.421
2.101,575.993,173.443,8.757,173.672,8.803,11.416,7.951e-4,11.416,0.004,8.927,0.902,34,-107,0.999,0.093,2.268e-8,-0.022,9.112e-5,28.225,5.229,13.48,0.069,1.904,1.629,2.099,0.496,2.412e7,2806.59,94.747,0.476,0.476,0.326,0.047,0.104,0.012,0.028,-1.287e-4,0,0,0,0,-0.003,0.002,0.131,0.013,84.657,0.008,7.587,32.885,856.855,351.227,0.05,0.424
2.151,604.796,177.721,8.733,177.967,8.77,12.916,9.555e-4,12.916,0.004,9.344,0.803,34,-107,0.999,0.368,1.005e-8,-0.021,2.514e-5,28.157,5.161,13.444,0.069,1.897,1.627,2.063,0.508,2.47e7,2795.979,99.64,0.477,0.477,0.325,0.047,0.105,0.05,0.106,3.798e-4,0,0,0,0,-0.002,0.002,0.131,0.013,85.052,0.009,7.2,32.834,856.329,351.196,0.05,0.427
2.201,634.299,181.986,8.704,182.245,8.731,14.479,0.001,14.479,0.004,9.71,0.696,34,-107,0.999,0.726,-2.963e-8,-0.019,2.054e-5,28.09,5.094,13.408,0.069,1.889,1.626,2.012,0.52,2.529e7,2784.257,104.776,0.478,0.479,0.325,0.048,0.106,0.101,0.206,-2.166e-4,0,0,0,0,-0.002,0.002,0.131,0.013,85.413,0.009,7.224,32.782,855.79,351.165,0.05,0.43
2.251,664.501,186.236,8.672,186.505,8.693,16.098,0.001,16.098,0.005,10.025,0.6,34,-107,0.999,1.036,-1.304e-8,-0.014,9.77e-6,28.022,5.026,13.372,0.069,1.882,1.624,1.974,0.533,2.587e7,2772.536,110.093,0.479,0.481,0.324,0.048,0.107,0.147,0.292,-1.785e-4,0,0,0,0,-9.897e-4,0.002,0.131,0.013,85.712,0.008,7.341,32.728,855.239,351.132,0.05,0.433
2.301,695.398,190.465,8.629,190.744,8.646,17.766,0.002,17.766,0.005,10.304,0.547,34,-107,0.999,1.099,-1.416e-8,-0.009,1.34e-5,27.955,4.959,13.336,0.069,1.882,1.622,1.983,0.545,2.644e7,2758.79,115.337,0.48,0.482,0.324,0.048,0.108,0.157,0.312,2.405e-4,0,0,0,0,-3.533e-4,0.002,0.131,0.013,85.919,0.007,6.967,32.674,854.675,351.099,0.05,0.437
2.351,726.987,194.668,8.574,194.955,8.59,19.478,0.002,19.478,0.005,10.565,0.527,34,-107,0.999,1.045,-1.269e-8,-0.003,1.325e-5,27.888,4.892,13.3,0.069,1.884,1.621,2.013,0.557,2.701e7,2742.348,120.589,0.481,0.483,0.324,0.049,0.109,0.149,0.3,-4.458e-4,0,0,0,0,-3.637e-5,0.002,0.131,0.013,86.022,0.005,6.544,32.618,854.098,351.065,0.05,0.441
2.401,759.264,198.844,8.518,199.138,8.533,21.232,0.002,21.232,0.005,10.815,0.504,34,-107,0.999,1.14,0,0.004,1.591e-5,27.822,4.826,13.264,0.069,1.883,1.619,2.016,0.569,2.758e7,2725.894,126.157,0.482,0.484,0.323,0.049,0.11,0.164,0.331,2.892e-4,0,0,0,0,5.31e-5,0.002,0.131,0.013,86.017,0.003,7.019,32.561,853.509,351.031,0.05,0.445
2.451,792.222,202.99,8.456,203.292,8.474,23.026,0.002,23.026,0.006,11.069,0.543,34,-107,0.999,0.937,-1.936e-8,0.01,6.687e-6,27.756,4.76,13.228,0.069,1.889,1.617,2.074,0.581,2.815e7,2709.109,131.51,0.484,0.485,0.323,0.049,0.112,0.133,0.276,-3.916e-4,0,0,0,0,4.008e-4,0.003,0.131,0.013,85.894,0.002,6.844,32.502,852.907,350.995,0.05,0.449
2.501,825.859,207.103,8.386,207.414,8.409,24.865,0.003,24.865,0.006,11.35,0.612,34,-107,0.999,0.66,1.758e-8,0.015,1.386e-5,27.691,4.695,13.193,0.069,1.897,1.616,2.148,0.592,2.87e7,2690.779,136.935,0.485,0.485,0.322,0.05,0.113,0.093,0.198,4.579e-4,0,0,0,0,8.977e-4,0.003,0.131,0.013,85.665,5.885e-4,6.743,32.443,852.293,350.959,0.05,0.451
2.551,860.167,211.181,8.312,211.503,8.343,26.752,0.003,26.752,0.006,11.673,0.713,34,-107,0.999,0.266,2.712e-8,0.018,2.76e-5,27.626,4.63,13.157,0.069,1.908,1.614,2.247,0.604,2.925e7,2672.253,142.438,0.486,0.486,0.322,0.05,0.114,0.037,0.081,-3.677e-4,0,0,0,0,0.001,0.003,0.131,0.013,85.36,8.181e-4,6.441,32.382,851.667,350.922,0.05,0.454
2.601,895.141,215.221,8.236,215.558,8.276,28.697,0.003,28.697,0.006,12.047,0.814,34,-107,0.999,0.082,2.56e-8,-0.019,5.521e-5,27.561,4.565,13.121,0.068,1.914,1.612,2.307,0.616,2.98e7,2653.728,148.173,0.487,0.487,0.321,0.05,0.115,0.011,0.027,4.011e-4,0,0,0,0,-0.001,0.003,0.131,0.013,85.021,0.002,6.378,32.32,851.029,350.885,0.05,0.457
2.651,930.774,219.223,8.157,219.577,8.208,30.707,0.003,30.707,0.006,12.47,0.916,34,-107,0.999,0.424,-3.535e-8,-0.017,2.052e-5,27.497,4.501,13.086,0.068,1.906,1.611,2.259,0.627,3.034e7,2635.234,154.087,0.488,0.488,0.321,0.051,0.117,0.059,0.134,-4.069e-4,0,0,0,0,-0.001,0.003,0.131,0.013,84.694,0.003,6.238,32.257,850.378,350.847,0.05,0.46
2.701,967.061,223.187,8.08,223.561,8.139,32.791,0.004,32.791,0.006,12.935,0.98,34,-107,0.999,0.564,-1.69e-8,-0.013,1.914e-5,27.433,4.437,13.05,0.068,1.904,1.609,2.254,0.639,3.088e7,2616.754,160.135,0.489,0.49,0.32,0.051,0.118,0.079,0.179,2.817e-4,0,0,0,0,-5.577e-4,0.003,0.131,0.013,84.425,0.005,6.623,32.193,849.716,350.808,0.05,0.464
2.751,1003.995,227.113,8.005,227.51,8.07,34.952,0.004,34.952,0.006,13.426,1.025,34,-107,0.998,0.668,-2.252e-8,-0.008,2.154e-5,27.37,4.374,13.015,0.068,1.903,1.607,2.256,0.65,3.142e7,2598.275,166.229,0.49,0.491,0.32,0.052,0.119,0.095,0.214,4.659e-4,0,0,0,0,-1.868e-4,0.003,0.131,0.013,84.241,0.008,6.795,32.128,849.042,350.768,0.05,0.484
2.801,1041.571,231.003,7.932,231.423,7.997,37.196,0.004,37.196,0.007,13.929,1.024,34,-107,0.998,0.611,-2.015e-8,-0.002,2.015e-5,27.307,4.311,12.98,0.068,1.905,1.606,2.289,0.661,3.195e7,2579.326,172.302,0.492,0.492,0.319,0.052,0.12,0.086,0.198,3.922e-4,0,0,0,0,-1.042e-5,0.003,0.131,0.013,84.158,0.01,7.215,32.039,848.15,350.715,0.05,0.488
2.851,1079.781,234.856,7.856,235.299,7.922,39.522,0.005,39.522,0.007,14.428,1.015,34,-107,0.998,0.6,-5.794e-9,0.004,1.203e-5,27.245,4.249,12.945,0.068,1.907,1.604,2.314,0.673,3.246e7,2559.657,178.354,0.493,0.493,0.319,0.052,0.122,0.085,0.196,4.111e-4,0,0,0,0,4.645e-5,0.003,0.131,0.013,84.178,0.012,7.029,31.931,847.066,350.649,0.05,0.49
2.901,1118.62,238.672,7.785,239.138,7.845,41.929,0.005,41.929,0.007,14.915,0.97,34,-107,0.998,0.488,-1.289e-8,0.009,5.149e-7,27.183,4.187,12.909,0.068,1.911,1.603,2.359,0.684,3.296e7,2539.979,184.405,0.494,0.494,0.318,0.053,0.123,0.069,0.162,-4.867e-4,0,0,0,0,2.556e-4,0.003,0.131,0.013,84.3,0.011,6.858,31.82,845.965,350.582,0.05,0.493
2.951,1158.083,242.455,7.717,242.942,7.768,44.413,0.005,44.413,0.007,15.368,0.882,34,-107,0.998,0.229,-2.665e-8,0.013,1.434e-6,27.122,4.126,12.875,0.068,1.919,1.601,2.434,0.695,3.347e7,2520.611,190.513,0.495,0.495,0.318,0.053,0.124,0.032,0.077,-6.002e-5,0,0,0,0,4.822e-4,0.003,0.131,0.013,84.505,0.01,6.99,31.708,844.845,350.514,0.05,0.496
3.001,1198.163,246.208,7.656,246.713,7.696,46.968,0.006,46.968,0.007,15.775,0.784,34,-107,0.998,0.041,-3.251e-8,-0.014,4.211e-5,27.061,4.065,12.84,0.068,1.926,1.599,2.496,0.706,3.396e7,2502.925,196.739,0.497,0.497,0.317,0.053,0.126,0.006,0.014,-4.886e-4,0,0,0,0,-5.434e-4,0.003,0.131,0.013,84.753,0.007,7.029,31.594,843.708,350.445,0.05,0.5
3.051,1238.857,249.931,7.594,250.451,7.624,49.586,0.006,49.586,0.007,16.13,0.676,34,-107,0.998,0.344,0,-0.012,4.674e-6,27,4.004,12.805,0.068,1.919,1.598,2.457,0.716,3.446e7,2485.491,203.161,0.498,0.498,0.317,0.054,0.127,0.048,0.119,-4.311e-4,0,0,0,0,-3.695e-4,0.003,0.131,0.013,84.99,0.002,7.319,31.478,842.554,350.375,0.05,0.504
3.101,1280.159,253.623,7.528,254.155,7.554,52.258,0.007,52.258,0.007,16.445,0.622,34,-107,0.998,0.43,6.772e-9,-0.007,-1.029e-6,26.94,3.944,12.77,0.068,1.918,1.596,2.463,0.727,3.494e7,2468.121,209.5,0.499,0.499,0.316,0.054,0.129,0.061,0.15,-3.257e-4,0,0,0,0,-1.324e-4,0.003,0.131,0.013,85.16,-0.003,6.959,31.361,841.382,350.304,0.05,0.506
3.151,1322.064,257.286,7.469,257.831,7.494,54.98,0.007,54.98,0.007,16.746,0.616,34,-107,0.998,0.371,0,-0.002,-1.221e-5,26.881,3.884,12.736,0.068,1.921,1.594,2.498,0.738,3.541e7,2453.748,215.784,0.5,0.5,0.316,0.055,0.13,0.052,0.131,4.614e-4,0,0,0,0,-1.224e-5,0.003,0.131,0.013,85.242,-0.006,6.354,31.242,840.193,350.232,0.05,0.509
3.201,1364.568,260.924,7.415,261.48,7.44,57.752,0.008,57.752,0.008,17.044,0.612,34,-107,0.998,0.359,6.006e-9,0.003,1.928e-6,26.821,3.825,12.702,0.068,1.923,1.593,2.524,0.748,3.588e7,2441.013,222.25,0.502,0.502,0.315,0.055,0.131,0.051,0.128,2.848e-4,0,0,0,0,1.619e-5,0.003,0.131,0.013,85.237,-0.006,6.35,31.121,838.987,350.158,0.05,0.511
3.251,1407.667,264.533,7.357,265.102,7.386,60.573,0.008,60.573,0.008,17.353,0.654,34,-107,0.998,0.21,-1.171e-8,0.006,-7.791e-6,26.762,3.766,12.667,0.068,1.928,1.591,2.578,0.759,3.635e7,2428.278,228.673,0.503,0.503,0.315,0.055,0.133,0.03,0.076,-4.412e-4,0,0,0,0,9.806e-5,0.003,0.131,0.013,85.152,-0.001,6.056,30.999,837.765,350.084,0.05,0.514
3.301,1451.347,268.018,7.099,268.6,7.134,63.446,0.008,63.446,0.008,17.679,0.698,34,-107,0.998,0.018,-2.658e-8,0.008,1.215e-4,26.708,3.712,12.636,0.067,1.935,1.59,2.64,0.769,3.68e7,2363.973,234.991,0.504,0.504,0.314,0.056,0.134,0.002,0.006,-6.682e-5,0,0,0,0,1.488e-4,0.003,0.131,0.013,85.017,0.004,5.755,30.874,836.526,350.009,0.05,0.517
3.351,1495.575,271.206,6.495,271.803,6.533,66.373,0.009,66.373,0.008,18.011,0.703,34,-107,0.998,0.136,-1.358e-8,-0.007,1.124e-5,26.656,3.66,12.605,0.067,1.933,1.588,2.637,0.778,3.721e7,2208.522,240.91,0.505,0.505,0.314,0.056,0.135,0.019,0.051,-3.013e-4,0,0,0,0,-1.143e-4,0.003,0.131,0.013,84.878,0.009,5.631,30.749,835.271,349.933,0.05,0.519
3.401,1540.301,274.094,5.886,274.707,5.926,69.354,0.009,69.354,0.008,18.339,0.683,34,-107,0.998,0.215,1.634e-8,-0.004,-9.437e-6,26.603,3.607,12.574,0.067,1.932,1.587,2.641,0.786,3.758e7,2051.336,246.362,0.506,0.506,0.313,0.057,0.136,0.03,0.08,6.745e-5,0,0,0,0,-4.337e-5,0.003,0.131,0.013,84.774,0.013,5.681,30.622,834.002,349.856,0.05,0.522
3.451,1585.473,276.644,5.195,277.272,5.234,72.387,0.01,72.387,0.008,18.648,0.636,34,-107,0.998,0.251,7.349e-9,-7.247e-4,-1.102e-5,26.561,3.564,12.549,0.067,1.932,1.586,2.651,0.794,3.79e7,1872.945,251.184,0.507,0.507,0.313,0.057,0.138,0.036,0.094,2.226e-4,0,0,0,0,-1.157e-6,0.003,0.131,0.013,84.728,0.015,5.645,30.493,832.721,349.778,0.05,0.524
3.501,1631.017,278.622,4.031,279.262,4.062,75.467,0.01,75.467,0.008,18.901,0.499,34,-107,0.998,0.146,0,0.002,1.286e-5,26.528,3.532,12.529,0.067,1.936,1.585,2.687,0.8,3.814e7,1569.839,254.925,0.508,0.508,0.313,0.057,0.138,0.021,0.056,2.821e-4,0,0,0,0,1.28e-5,0.003,0.131,0.013,84.747,0.016,6.006,30.364,831.428,349.699,0.05,0.527
3.551,1676.835,279.991,2.791,280.64,2.813,78.583,0.011,78.583,0.008,19.08,0.344,34,-107,0.998,0.009,-1.94e-8,0.004,2.353e-4,26.495,3.499,12.51,0.067,1.941,1.584,2.728,0.804,3.83e7,1246.358,257.469,0.509,0.509,0.312,0.057,0.139,0.001,0.004,-4.292e-4,0,0,0,0,2.863e-5,0.003,0.131,0.013,84.806,0.013,6.34,30.233,830.129,349.62,0.05,0.529
3.601,1722.828,280.755,1.557,281.41,1.573,81.722,0.012,81.722,0.008,19.191,0.223,34,-107,0.998,0.012,-8.325e-9,-0.004,6.094e-5,26.465,3.469,12.492,0.067,1.941,1.583,2.737,0.806,3.838e7,924.625,258.693,0.509,0.509,0.312,0.057,0.139,0.002,0.005,-1.547e-4,0,0,0,0,-2.932e-5,0.003,0.131,0.013,84.874,0.009,6.057,30.103,828.824,349.541,0.05,0.532
3.651,1768.913,281.109,0.723,281.767,0.73,84.875,0.012,84.875,0.008,19.252,0.104,34,-107,0.998,0.161,-1.212e-8,-0.002,2.978e-5,26.451,3.455,12.484,0.067,1.937,1.583,2.71,0.808,3.84e7,706.535,259.237,0.509,0.509,0.312,0.057,0.139,0.023,0.062,3.664e-4,0,0,0,0,-9.873e-6,0.003,0.131,0.013,84.93,0.003,6.505,29.972,827.517,349.462,0.05,0.534
3.701,1815.031,281.167,0.12,281.827,0.13,88.036,0.013,88.036,0.008,19.276,0.05,34,-107,0.998,0.163,0,4.718e-4,1.731e-6,26.438,3.442,12.476,0.067,1.937,1.582,2.713,0.808,3.838e7,549.157,259.056,0.509,0.509,0.312,0.057,0.14,0.023,0.063,-3.624e-5,0,0,0,0,4.745e-7,0.003,0.131,0.013,84.945,4.396e-4,6.404,29.841,826.208,349.382,0.05,0.537
3.751,1861.135,280.931,-0.482,281.591,0.482,91.197,0.013,91.197,0.008,19.273,0.005,34,-107,0.998,0.169,0,0.003,2.136e-6,26.425,3.429,12.468,0.067,1.937,1.582,2.713,0.808,3.831e7,391.78,258.329,0.509,0.509,0.312,0.057,0.139,0.024,0.065,4.868e-4,0,0,0,0,2.263e-5,0.003,0.131,0.013,84.91,7.429e-4,6.592,29.71,824.9,349.303,0.05,0.539
3.801,1907.181,280.462,-0.954,281.121,0.956,94.357,0.014,94.357,0.009,19.248,0.054,34,-107,0.998,0.195,2.195e-8,0.006,-1.527e-5,26.419,3.423,12.464,0.067,1.936,1.582,2.708,0.807,3.823e7,267.494,257.205,0.509,0.509,0.312,0.057,0.139,0.028,0.074,2.868e-4,0,0,0,0,8.608e-5,0.003,0.131,0.013,84.824,0.004,7.133,29.579,823.594,349.224,0.05,0.541
3.851,1953.141,279.886,-1.172,280.546,1.172,97.512,0.015,97.512,0.009,19.22,0.038,34,-107,0.998,0.067,-2.77e-8,0.008,-3.1e-5,26.414,3.418,12.462,0.067,1.939,1.582,2.734,0.805,3.812e7,210.305,255.737,0.509,0.509,0.312,0.057,0.139,0.009,0.025,-3.756e-4,0,0,0,0,1.529e-4,0.003,0.131,0.013,84.686,0.01,7.13,29.448,822.29,349.144,0.05,0.543
3.901,1998.999,279.209,-1.38,279.868,1.38,100.663,0.015,100.663,0.009,19.198,0.035,34,-107,0.998,0.018,-3.714e-8,-0.009,-1.438e-4,26.409,3.413,12.459,0.067,1.94,1.581,2.744,0.804,3.8e7,155.057,254.159,0.508,0.508,0.312,0.057,0.139,0.002,0.007,1.478e-4,0,0,0,0,-1.7e-4,0.003,0.131,0.013,84.527,0.013,7.457,29.318,820.989,349.065,0.05,0.545
3.951,2044.737,278.436,-1.574,279.096,1.575,103.81,0.016,103.81,0.009,19.178,0.027,34,-107,0.998,0.12,-4.635e-8,-0.008,-4.189e-6,26.406,3.41,12.457,0.067,1.937,1.581,2.72,0.802,3.787e7,103.421,252.386,0.508,0.508,0.312,0.057,0.139,0.017,0.046,-1.652e-4,0,0,0,0,-1.285e-4,0.003,0.131,0.013,84.375,0.015,7.638,29.188,819.692,348.987,0.05,0.547
4.001,2090.345,277.615,-1.67,278.276,1.67,106.955,0.017,106.955,0.009,19.161,0.033,34,-107,0.998,0.14,3.057e-8,-0.006,-4.964e-5,26.405,3.409,12.456,0.067,1.936,1.581,2.714,0.799,3.773e7,76.8,250.573,0.508,0.508,0.313,0.057,0.138,0.02,0.054,4.461e-5,0,0,0,0,-6.997e-5,0.003,0.131,0.013,84.255,0.015,8.078,29.058,818.398,348.908,0.05,0.549
4.051,2135.815,276.756,-1.751,277.418,1.751,110.097,0.017,110.097,0.009,19.153,0.003,34,-107,0.998,0.306,1.218e-8,-0.002,-2.381e-5,26.403,3.407,12.455,0.067,1.931,1.581,2.677,0.797,3.758e7,54.959,248.557,0.508,0.508,0.313,0.057,0.138,0.044,0.117,-4.265e-4,0,0,0,0,-8.297e-6,0.003,0.131,0.013,84.184,0.015,7.519,28.929,817.108,348.83,0.05,0.551
4.101,2181.141,275.858,-1.826,276.522,1.826,113.239,0.018,113.239,0.009,19.15,0.013,34,-107,0.998,0.28,0,0.003,-9.267e-6,26.402,3.406,12.454,0.067,1.932,1.581,2.68,0.795,3.743e7,33.199,246.522,0.507,0.507,0.313,0.057,0.138,0.04,0.107,-1.421e-4,0,0,0,0,1.563e-5,0.003,0.131,0.013,84.192,0.013,7.544,28.8,815.822,348.752,0.05,0.554
4.151,2226.318,274.941,-1.865,275.606,1.865,116.379,0.019,116.379,0.009,19.133,0.053,34,-107,0.998,0.14,1.561e-8,0.006,-2.394e-5,26.402,3.405,12.454,0.067,1.935,1.581,2.707,0.792,3.728e7,20.082,244.464,0.507,0.507,0.313,0.057,0.137,0.02,0.053,-2.787e-4,0,0,0,0,7.703e-5,0.003,0.131,0.013,84.274,0.01,7.767,28.672,814.541,348.674,0.05,0.556
4.201,2271.344,274.015,-1.884,274.681,1.885,119.515,0.02,119.515,0.009,19.105,0.058,34,-107,0.998,0.122,5.613e-9,0.008,-6.713e-5,26.401,3.405,12.454,0.067,1.935,1.581,2.707,0.79,3.711e7,12.793,242.285,0.507,0.507,0.313,0.057,0.137,0.017,0.047,3.076e-4,0,0,0,0,1.452e-4,0.003,0.131,0.013,84.402,0.005,7.164,28.544,813.263,348.596,0.05,0.558
4.251,2316.217,273.081,-1.901,273.746,1.903,122.646,0.02,122.646,0.01,19.067,0.092,34,-107,0.998,0.009,1.99e-8,-0.009,-0.001,26.401,3.405,12.454,0.067,1.938,1.581,2.728,0.787,3.696e7,5.503,240.177,0.506,0.506,0.313,0.057,0.137,0.001,0.004,9.725e-5,0,0,0,0,-1.752e-4,0.003,0.131,0.013,84.558,9.117e-5,7.004,28.416,811.99,348.519,0.05,0.56
# Event BURNOUT occurred at t=4.264 seconds
# Event EJECTION_CHARGE occurred at t=4.264 seconds
4.264,2327.635,272.841,-1.915,273.506,1.918,123.444,0.021,123.444,0.01,19.055,0.103,34,-107,0.998,0.051,0,-0.009,-1.602e-4,26.401,3.405,12.454,0.067,1.937,1.581,2.719,0.786,3.692e7,0.929,239.648,0.506,0.506,0.313,0.057,0.136,0.007,0.019,1.484e-4,0,0,0,0,-1.755e-4,0.003,0.131,0.013,84.599,-5.456e-4,6.988,28.384,811.666,348.499,0.013,0.562
4.283,2344.744,272.481,-1.915,273.146,1.918,124.639,0.021,124.639,0.01,19.034,0.117,34,-107,0.998,0.108,0,-0.008,-8.023e-5,26.401,3.405,12.454,0.067,1.935,1.581,2.706,0.785,3.686e7,0,238.859,0.506,0.506,0.313,0.057,0.136,0.015,0.041,-3.939e-5,0,0,0,0,-1.582e-4,0.003,0.131,0.013,84.658,-0.001,6.964,28.335,811.181,348.47,0.019,0.565
4.312,2370.364,271.944,-1.909,272.607,1.913,126.429,0.021,126.429,0.01,18.999,0.132,34,-107,0.998,0.174,0,-0.007,-5.283e-5,26.401,3.405,12.454,0.067,1.933,1.581,2.69,0.784,3.677e7,0,237.676,0.506,0.506,0.313,0.056,0.136,0.025,0.066,-3.975e-4,0,0,0,0,-1.143e-4,0.003,0.131,0.013,84.738,-7.473e-4,6.882,28.262,810.454,348.426,0.029,0.567
4.355,2408.7,271.14,-1.901,271.801,1.906,129.107,0.022,129.107,0.01,18.941,0.143,34,-107,0.998,0.226,0,-0.005,-4.77e-5,26.401,3.405,12.454,0.067,1.931,1.581,2.677,0.782,3.663e7,0,235.896,0.506,0.506,0.313,0.056,0.136,0.032,0.085,4.483e-7,0,0,0,0,-4.768e-5,0.003,0.131,0.013,84.829,0.002,6.68,28.153,809.367,348.36,0.043,0.569
4.405,2453.102,270.21,-1.892,270.868,1.898,132.208,0.023,132.208,0.01,18.868,0.15,34,-107,0.998,0.264,-9.81e-9,-8.638e-4,-2.629e-5,26.401,3.405,12.454,0.067,1.93,1.581,2.666,0.779,3.647e7,0,233.872,0.505,0.505,0.314,0.056,0.135,0.037,0.099,-4.687e-4,0,0,0,0,-1.721e-6,0.003,0.131,0.013,84.878,0.008,6.617,28.027,808.107,348.283,0.05,0.571
4.455,2497.352,269.284,-1.886,269.939,1.891,135.297,0.023,135.297,0.01,18.797,0.138,34,-107,0.998,0.217,0,0.003,-1.955e-5,26.401,3.405,12.454,0.067,1.931,1.581,2.673,0.777,3.632e7,0,231.821,0.505,0.505,0.314,0.056,0.135,0.031,0.082,3.14e-4,0,0,0,0,1.612e-5,0.003,0.131,0.013,84.859,0.012,6.457,27.901,806.852,348.207,0.05,0.573
4.505,2541.45,268.361,-1.879,269.014,1.883,138.375,0.024,138.375,0.01,18.731,0.127,34,-107,0.998,0.176,-1.013e-8,0.006,-1.673e-5,26.401,3.405,12.454,0.067,1.932,1.581,2.679,0.774,3.617e7,0,229.85,0.505,0.505,0.314,0.056,0.135,0.025,0.067,-1.547e-4,0,0,0,0,7.309e-5,0.003,0.131,0.013,84.783,0.015,6.603,27.776,805.601,348.131,0.05,0.577
4.555,2585.397,267.441,-1.873,268.092,1.876,141.443,0.025,141.443,0.01,18.675,0.102,34,-107,0.998,0.07,2.052e-8,0.007,-7.475e-5,26.401,3.405,12.454,0.067,1.934,1.581,2.698,0.772,3.601e7,0,227.869,0.504,0.504,0.314,0.056,0.134,0.01,0.026,-1.269e-4,0,0,0,0,1.241e-4,0.003,0.131,0.013,84.664,0.017,6.627,27.651,804.354,348.055,0.05,0.58
4.605,2629.193,266.524,-1.867,267.174,1.869,144.503,0.026,144.503,0.01,18.627,0.094,34,-107,0.998,0.032,-2.999e-8,0.008,-1.072e-4,26.401,3.405,12.454,0.067,1.935,1.581,2.703,0.769,3.587e7,0,225.997,0.504,0.504,0.314,0.056,0.134,0.004,0.012,-3.476e-4,0,0,0,0,1.547e-4,0.003,0.131,0.013,84.524,0.017,7.074,27.526,803.111,347.98,0.05,0.583
4.655,2672.839,265.61,-1.861,266.26,1.863,147.555,0.027,147.555,0.01,18.586,0.075,34,-107,0.998,0.053,-1.758e-8,-0.008,-4.972e-5,26.401,3.405,12.454,0.067,1.934,1.581,2.696,0.767,3.572e7,0,224.114,0.504,0.504,0.314,0.056,0.134,0.007,0.02,-2.11e-5,0,0,0,0,-1.508e-4,0.003,0.131,0.013,84.377,0.015,7.307,27.402,801.886,347.905,0.05,0.585
4.705,2716.336,264.699,-1.857,265.348,1.857,150.601,0.027,150.601,0.01,18.556,0.047,34,-107,0.998,0.176,2.692e-8,-0.006,-3.927e-5,26.401,3.405,12.454,0.067,1.93,1.581,2.668,0.765,3.557e7,0,222.231,0.504,0.504,0.314,0.056,0.133,0.025,0.066,-3.563e-4,0,0,0,0,-9.691e-5,0.003,0.131,0.013,84.246,0.013,7.282,27.279,800.702,347.83,0.05,0.587
4.755,2759.683,263.789,-1.853,264.44,1.853,153.644,0.028,153.644,0.011,18.541,0.015,34,-106.999,0.998,0.313,-1.072e-8,-0.003,1.804e-6,26.401,3.405,12.454,0.067,1.926,1.581,2.637,0.762,3.542e7,0,220.34,0.503,0.503,0.314,0.056,0.133,0.044,0.117,2.049e-4,0,0,0,0,-1.98e-5,0.003,0.131,0.013,84.161,0.011,6.959,27.155,799.522,347.755,0.05,0.589
4.805,2802.881,262.882,-1.847,263.535,1.847,156.685,0.029,156.685,0.011,18.538,0.004,34,-106.999,0.998,0.359,0,0.002,-1.697e-5,26.401,3.405,12.454,0.067,1.925,1.581,2.625,0.76,3.527e7,0,218.456,0.503,0.503,0.315,0.055,0.133,0.051,0.134,2.188e-4,0,0,0,0,7.88e-6,0.003,0.131,0.013,84.152,0.008,6.714,27.033,798.346,347.681,0.05,0.591
4.855,2845.931,261.979,-1.838,262.633,1.838,159.726,0.03,159.726,0.011,18.534,0.014,34,-106.999,0.998,0.313,0,0.006,-1.056e-5,26.401,3.405,12.454,0.067,1.925,1.581,2.632,0.757,3.512e7,0,216.555,0.503,0.503,0.315,0.055,0.132,0.044,0.116,3.282e-4,0,0,0,0,1.015e-4,0.003,0.131,0.013,84.228,0.006,6.5,26.91,797.174,347.607,0.05,0.593
4.905,2888.832,261.08,-1.827,261.736,1.828,162.765,0.031,162.765,0.011,18.519,0.05,34,-106.999,0.998,0.152,-2.071e-8,0.01,-5.179e-5,26.401,3.405,12.454,0.067,1.929,1.581,2.662,0.755,3.498e7,0,214.678,0.502,0.502,0.315,0.055,0.132,0.021,0.056,-1.517e-4,0,0,0,0,2.295e-4,0.003,0.131,0.013,84.378,0.005,6.494,26.788,796.007,347.533,0.05,0.596
4.955,2931.587,260.187,-1.815,260.843,1.818,165.8,0.032,165.8,0.011,18.48,0.109,34,-106.999,0.998,0.12,-7.222e-9,-0.01,-5.339e-5,26.401,3.405,12.454,0.067,1.93,1.581,2.666,0.752,3.484e7,0,212.93,0.502,0.502,0.315,0.055,0.132,0.017,0.045,-2.508e-4,0,0,0,0,-2.367e-4,0.003,0.131,0.013,84.559,0.007,6.877,26.667,794.843,347.459,0.05,0.598
5.005,2974.196,259.3,-1.805,259.953,1.81,168.827,0.033,168.827,0.011,18.416,0.146,34,-106.999,0.998,0.296,5.801e-9,-0.007,-2.272e-5,26.401,3.405,12.454,0.067,1.925,1.581,2.627,0.75,3.469e7,0,211.199,0.502,0.502,0.315,0.055,0.132,0.042,0.11,1.753e-4,0,0,0,0,-1.181e-4,0.003,0.131,0.013,84.712,0.01,6.957,26.546,793.683,347.386,0.05,0.6
5.055,3016.659,258.417,-1.798,259.067,1.803,171.842,0.034,171.842,0.011,18.347,0.133,34,-106.999,0.998,0.252,0,-0.003,-2.569e-5,26.401,3.405,12.454,0.067,1.926,1.581,2.634,0.747,3.454e7,0,209.296,0.501,0.502,0.315,0.055,0.131,0.035,0.094,-1.006e-4,0,0,0,0,-3.032e-5,0.003,0.131,0.013,84.803,0.013,6.298,26.425,792.527,347.312,0.05,0.602
5.105,3058.978,257.537,-1.79,258.185,1.797,174.846,0.034,174.846,0.011,18.277,0.152,34,-106.999,0.998,0.341,-7.384e-9,4.735e-4,-7.376e-6,26.401,3.405,12.454,0.067,1.923,1.581,2.613,0.745,3.44e7,0,207.619,0.501,0.501,0.315,0.055,0.131,0.048,0.126,3.546e-4,0,0,0,0,5.689e-7,0.003,0.131,0.013,84.83,0.017,6.581,26.305,791.375,347.24,0.05,0.604
5.155,3101.153,256.661,-1.783,257.305,1.79,177.838,0.035,177.838,0.011,18.198,0.163,34,-106.999,0.998,0.39,0,0.005,-3.049e-5,26.401,3.405,12.454,0.067,1.921,1.581,2.6,0.743,3.427e7,0,205.975,0.501,0.501,0.315,0.055,0.131,0.055,0.143,1.376e-4,0,0,0,0,7.333e-5,0.003,0.131,0.013,84.778,0.021,7.037,26.185,790.227,347.167,0.05,0.606
5.205,3143.185,255.788,-1.78,256.429,1.784,180.817,0.036,180.817,0.012,18.13,0.115,34,-106.999,0.998,0.174,0,0.009,-6.768e-5,26.401,3.405,12.454,0.067,1.927,1.581,2.642,0.74,3.412e7,0,204.101,0.501,0.501,0.316,0.055,0.13,0.024,0.063,1.309e-4,0,0,0,0,1.992e-4,0.003,0.131,0.013,84.645,0.023,6.615,26.065,789.083,347.094,0.05,0.608
5.255,3185.073,254.916,-1.776,255.556,1.778,183.787,0.037,183.787,0.012,18.081,0.084,34,-106.999,0.998,0.026,0,0.01,-4.019e-4,26.401,3.405,12.454,0.067,1.93,1.581,2.671,0.738,3.398e7,0,202.388,0.5,0.5,0.316,0.055,0.13,0.004,0.01,-3.657e-4,0,0,0,0,2.64e-4,0.003,0.131,0.013,84.47,0.024,6.706,25.946,787.943,347.022,0.05,0.61
5.305,3226.819,254.046,-1.772,254.686,1.773,186.75,0.038,186.75,0.012,18.047,0.057,34,-106.999,0.998,0.109,-3.411e-8,-0.01,-6.836e-5,26.401,3.405,12.454,0.067,1.928,1.581,2.651,0.736,3.384e7,0,200.725,0.5,0.5,0.316,0.055,0.13,0.015,0.04,1.545e-4,0,0,0,0,-2.397e-4,0.003,0.131,0.013,84.29,0.022,6.856,25.828,786.806,346.95,0.05,0.613
5.355,3268.422,253.178,-1.768,253.819,1.769,189.709,0.039,189.709,0.012,18.026,0.033,34,-106.999,0.998,0.228,-1.24e-8,-0.007,-2.794e-5,26.401,3.405,12.454,0.067,1.924,1.581,2.624,0.733,3.371e7,0,199.088,0.5,0.5,0.316,0.054,0.129,0.032,0.084,-2.558e-4,0,0,0,0,-1.45e-4,0.003,0.131,0.013,84.134,0.019,6.953,25.709,785.674,346.879,0.05,0.616
5.405,3309.882,252.312,-1.763,252.954,1.764,192.664,0.04,192.664,0.012,18.013,0.022,34,-106.999,0.998,0.286,0,-0.004,-1.834e-5,26.401,3.405,12.454,0.067,1.922,1.581,2.609,0.731,3.357e7,0,197.466,0.499,0.5,0.316,0.054,0.129,0.04,0.104,3.607e-5,0,0,0,0,-4.889e-5,0.003,0.131,0.013,84.028,0.016,7.101,25.591,784.545,346.807,0.05,0.618
5.455,3351.201,251.448,-1.759,252.092,1.759,195.619,0.041,195.619,0.012,18.006,0.007,34,-106.999,0.998,0.354,0,-3.817e-4,-3.917e-6,26.401,3.405,12.454,0.067,1.92,1.581,2.593,0.729,3.343e7,0,195.811,0.499,0.499,0.316,0.054,0.129,0.05,0.129,3.676e-4,0,0,0,0,-3.878e-7,0.003,0.131,0.013,83.986,0.013,6.906,25.474,783.421,346.736,0.05,0.62
5.505,3392.379,250.587,-1.753,251.233,1.753,198.572,0.042,198.572,0.012,18.006,0.002,34,-106.999,0.998,0.376,0,0.004,-5.392e-6,26.401,3.405,12.454,0.067,1.919,1.581,2.586,0.726,3.329e7,0,194.131,0.499,0.499,0.316,0.054,0.128,0.053,0.137,-3.613e-4,0,0,0,0,4.587e-5,0.003,0.131,0.013,84.02,0.01,6.573,25.357,782.3,346.665,0.05,0.622
5.555,3433.415,249.73,-1.743,250.378,1.743,201.526,0.043,201.526,0.012,17.996,0.035,34,-106.999,0.998,0.214,-1.082e-8,0.007,-3.382e-5,26.401,3.405,12.454,0.067,1.923,1.581,2.617,0.724,3.315e7,0,192.485,0.499,0.499,0.316,0.054,0.128,0.03,0.078,-2.007e-4,0,0,0,0,1.503e-4,0.003,0.131,0.013,84.129,0.008,6.753,25.24,781.183,346.595,0.05,0.624
5.605,3474.312,248.878,-1.736,249.526,1.736,204.476,0.044,204.476,0.012,17.98,0.035,34,-106.999,0.998,0.203,8.578e-9,0.01,-4.904e-5,26.401,3.405,12.454,0.067,1.923,1.581,2.617,0.722,3.301e7,0,190.76,0.498,0.498,0.317,0.054,0.128,0.028,0.074,1.093e-4,0,0,0,0,2.822e-4,0.003,0.131,0.013,84.289,0.007,6.011,25.124,780.07,346.524,0.05,0.626
5.655,3515.068,248.029,-1.725,248.678,1.727,207.424,0.046,207.424,0.013,17.95,0.085,34,-106.999,0.998,0.058,-2.363e-8,-0.011,-1.452e-4,26.401,3.405,12.454,0.067,1.927,1.581,2.644,0.719,3.287e7,0,189.191,0.498,0.498,0.317,0.054,0.128,0.008,0.021,-4.334e-4,0,0,0,0,-3.249e-4,0.003,0.131,0.013,84.484,0.007,6.275,25.008,778.96,346.454,0.05,0.628
5.705,3555.686,247.186,-1.716,247.833,1.72,210.364,0.047,210.364,0.013,17.9,0.119,34,-106.999,0.998,0.242,-3.268e-8,-0.009,-2.855e-5,26.401,3.405,12.454,0.067,1.922,1.581,2.604,0.717,3.274e7,0,187.643,0.498,0.498,0.317,0.054,0.127,0.034,0.089,1.476e-4,0,0,0,0,-2.332e-4,0.003,0.131,0.013,84.669,0.01,6.235,24.893,777.854,346.384,0.05,0.63
5.755,3596.166,246.347,-1.707,246.991,1.714,213.295,0.048,213.295,0.013,17.832,0.154,34,-106.999,0.998,0.423,0,-0.005,-2.88e-5,26.401,3.405,12.454,0.067,1.917,1.581,2.565,0.715,3.261e7,0,186.182,0.498,0.498,0.317,0.054,0.127,0.06,0.153,-2.455e-4,0,0,0,0,-7.822e-5,0.003,0.131,0.013,84.802,0.014,6.431,24.778,776.753,346.314,0.05,0.632
5.805,3636.509,245.512,-1.7,246.153,1.708,216.214,0.049,216.214,0.013,17.751,0.171,34,-106.999,0.998,0.513,-9.697e-9,3.396e-5,-1.405e-5,26.401,3.405,12.454,0.067,1.914,1.581,2.545,0.713,3.247e7,0,184.709,0.497,0.498,0.317,0.054,0.127,0.073,0.185,1.371e-5,0,0,0,0,0,0.003,0.131,0.013,84.85,0.019,6.605,24.663,775.654,346.245,0.05,0.634
5.855,3676.715,244.68,-1.694,245.317,1.702,219.119,0.05,219.119,0.013,17.667,0.165,34,-106.999,0.998,0.489,-1.705e-8,0.006,-2.576e-5,26.401,3.405,12.454,0.067,1.914,1.581,2.548,0.71,3.234e7,0,183.18,0.497,0.497,0.317,0.054,0.126,0.069,0.176,3.205e-4,0,0,0,0,9.252e-5,0.003,0.131,0.013,84.796,0.022,6.727,24.549,774.56,346.175,0.05,0.636
5.905,3716.785,243.85,-1.691,244.484,1.696,222.011,0.051,222.011,0.013,17.595,0.128,34,-106.999,0.998,0.305,-3.224e-8,0.01,-3.381e-5,26.401,3.405,12.454,0.067,1.919,1.581,2.582,0.708,3.221e7,0,181.551,0.497,0.497,0.317,0.054,0.126,0.043,0.11,-2.263e-4,0,0,0,0,2.939e-4,0.003,0.131,0.013,84.648,0.025,6.551,24.435,773.469,346.106,0.05,0.638
5.955,3756.718,243.021,-1.689,243.654,1.691,224.893,0.052,224.893,0.013,17.544,0.083,34,-106.999,0.998,0.064,-1.983e-8,0.012,-1.452e-4,26.401,3.405,12.454,0.067,1.925,1.581,2.63,0.706,3.207e7,0,179.968,0.497,0.497,0.317,0.053,0.126,0.009,0.023,-1.037e-4,0,0,0,0,4.216e-4,0.003,0.131,0.013,84.441,0.024,6.366,24.321,772.382,346.038,0.05,0.64
6.005,3796.516,242.194,-1.687,242.826,1.687,227.768,0.053,227.768,0.013,17.511,0.05,34,-106.999,0.998,0.116,0,-0.012,-7.516e-5,26.401,3.405,12.454,0.067,1.923,1.581,2.617,0.703,3.194e7,0,178.501,0.496,0.496,0.317,0.053,0.126,0.016,0.043,2.84e-4,0,0,0,0,-4.072e-4,0.003,0.131,0.013,84.221,0.021,6.495,24.208,771.299,345.969,0.05,0.642
6.055,3836.178,241.367,-1.685,242,1.685,230.639,0.054,230.639,0.013,17.496,0.015,34,-106.999,0.998,0.308,-9.814e-9,-0.01,-3.183e-5,26.401,3.405,12.454,0.067,1.918,1.581,2.575,0.701,3.181e7,0,177.059,0.496,0.496,0.317,0.053,0.125,0.043,0.111,-4.208e-4,0,0,0,0,-2.644e-4,0.003,0.131,0.013,84.024,0.017,6.445,24.095,770.219,345.901,0.05,0.644
6.105,3875.705,240.542,-1.682,241.177,1.682,233.509,0.055,233.509,0.014,17.496,0.01,34,-106.999,0.998,0.445,-2.142e-8,-0.005,-8.652e-6,26.401,3.405,12.454,0.067,1.914,1.581,2.545,0.699,3.168e7,0,175.635,0.496,0.496,0.318,0.053,0.125,0.063,0.16,4.132e-4,0,0,0,0,-8.569e-5,0.003,0.131,0.013,83.887,0.012,6.361,23.983,769.143,345.833,0.05,0.646
6.155,3915.096,239.718,-1.676,240.356,1.676,236.379,0.057,236.379,0.014,17.499,0.003,34,-106.999,0.998,0.412,-2.107e-8,-9.144e-4,-4.71e-6,26.401,3.405,12.454,0.067,1.915,1.581,2.55,0.697,3.155e7,0,174.213,0.496,0.496,0.318,0.053,0.125,0.058,0.148,2.106e-4,0,0,0,0,-2.447e-6,0.003,0.131,0.013,83.832,0.008,6.664,23.871,768.071,345.765,0.05,0.649
6.205,3954.353,238.898,-1.669,239.538,1.669,239.25,0.058,239.25,0.014,17.499,0.006,34,-106.999,0.998,0.362,0,0.003,-2.072e-5,26.401,3.405,12.454,0.067,1.916,1.581,2.558,0.695,3.142e7,0,172.756,0.495,0.495,0.318,0.053,0.124,0.051,0.129,3.074e-6,0,0,0,0,3.135e-5,0.003,0.131,0.013,83.855,0.006,6.692,23.759,767.002,345.697,0.05,0.651
6.255,3993.475,238.082,-1.66,238.723,1.661,242.12,0.059,242.12,0.014,17.489,0.037,34,-106.999,0.998,0.194,-1.718e-8,0.006,-3.452e-5,26.401,3.405,12.454,0.067,1.92,1.581,2.59,0.692,3.13e7,0,171.321,0.495,0.495,0.318,0.053,0.124,0.027,0.07,-3.567e-4,0,0,0,0,1.147e-4,0.003,0.131,0.013,83.944,0.005,6.959,23.648,765.938,345.63,0.05,0.654
6.305,4032.464,237.27,-1.65,237.912,1.652,244.987,0.06,244.987,0.014,17.459,0.086,34,-106.999,0.998,0.085,-2.258e-8,-0.007,-9.051e-5,26.401,3.405,12.454,0.067,1.923,1.581,2.61,0.69,3.118e7,0,169.988,0.495,0.495,0.318,0.053,0.124,0.012,0.031,6.739e-5,0,0,0,0,-1.37e-4,0.003,0.131,0.013,84.067,0.007,7.574,23.537,764.876,345.563,0.05,0.656
6.355,4071.32,236.464,-1.641,237.103,1.646,247.846,0.061,247.846,0.014,17.405,0.129,34,-106.999,0.998,0.328,-1.338e-8,-0.005,-2.748e-5,26.401,3.405,12.454,0.067,1.916,1.581,2.559,0.688,3.106e7,0,168.724,0.495,0.495,0.318,0.053,0.124,0.046,0.117,4.971e-4,0,0,0,0,-6.237e-5,0.003,0.131,0.013,84.173,0.01,8.112,23.427,763.819,345.496,0.05,0.658
6.405,4110.044,235.661,-1.634,236.298,1.64,250.696,0.062,250.696,0.014,17.337,0.141,34,-106.999,0.998,0.402,-1.753e-8,-7.604e-4,-1.763e-5,26.401,3.405,12.454,0.067,1.914,1.581,2.542,0.686,3.093e7,0,167.371,0.494,0.495,0.318,0.053,0.123,0.056,0.143,-2.711e-4,0,0,0,0,-1.749e-6,0.003,0.131,0.013,84.222,0.015,8.19,23.317,762.764,345.429,0.05,0.66
6.455,4148.637,234.86,-1.631,235.495,1.635,253.535,0.064,253.535,0.014,17.275,0.112,34,-106.999,0.998,0.251,-9.803e-9,0.002,-4.257e-5,26.401,3.405,12.454,0.067,1.917,1.581,2.57,0.684,3.08e7,0,165.845,0.494,0.494,0.318,0.053,0.123,0.035,0.09,-9.739e-5,0,0,0,0,1.797e-5,0.003,0.131,0.013,84.204,0.02,7.597,23.207,761.714,345.362,0.05,0.663
6.505,4187.098,234.062,-1.627,234.694,1.63,256.364,0.065,256.364,0.014,17.222,0.102,34,-106.999,0.998,0.196,-1.9e-8,0.005,-5.203e-5,26.401,3.405,12.454,0.067,1.919,1.581,2.579,0.682,3.067e7,0,164.469,0.494,0.494,0.318,0.053,0.123,0.027,0.07,3.95e-4,0,0,0,0,6.766e-5,0.003,0.131,0.013,84.137,0.025,7.62,23.098,760.667,345.296,0.05,0.665
6.555,4225.429,233.265,-1.622,233.896,1.625,259.185,0.066,259.185,0.015,17.173,0.099,34,-106.999,0.998,0.177,-9.145e-9,0.007,-8.186e-5,26.401,3.405,12.454,0.067,1.919,1.581,2.581,0.68,3.055e7,0,163.159,0.494,0.494,0.318,0.053,0.123,0.024,0.063,-2.667e-4,0,0,0,0,1.327e-4,0.003,0.131,0.013,84.035,0.03,7.929,22.989,759.624,345.23,0.05,0.667
6.605,4263.629,232.471,-1.617,233.101,1.62,261.998,0.067,261.998,0.015,17.124,0.1,34,-106.999,0.998,0.175,-2.296e-8,0.008,-9.622e-5,26.401,3.405,12.454,0.067,1.919,1.581,2.58,0.678,3.043e7,0,161.898,0.493,0.493,0.319,0.052,0.122,0.024,0.063,-3.287e-4,0,0,0,0,2.175e-4,0.003,0.131,0.013,83.9,0.033,8.441,22.88,758.584,345.164,0.05,0.67
6.655,4301.699,231.679,-1.614,232.308,1.616,264.804,0.068,264.804,0.015,17.079,0.081,34,-106.999,0.998,0.06,1.024e-8,0.01,-2.777e-4,26.401,3.405,12.454,0.067,1.921,1.581,2.601,0.675,3.031e7,0,160.576,0.493,0.493,0.319,0.052,0.122,0.008,0.021,-1.742e-4,0,0,0,0,2.853e-4,0.003,0.131,0.013,83.737,0.033,8.59,22.772,757.548,345.099,0.05,0.672
6.705,4339.639,230.888,-1.612,231.517,1.613,267.602,0.07,267.602,0.015,17.048,0.047,34,-106.999,0.998,0.143,0,-0.009,-1.226e-4,26.401,3.405,12.454,0.067,1.919,1.581,2.582,0.673,3.019e7,0,159.24,0.493,0.493,0.319,0.052,0.122,0.02,0.052,-4.863e-4,0,0,0,0,-2.624e-4,0.003,0.131,0.013,83.565,0.03,8.397,22.664,756.557,345.033,0.05,0.674
6.755,4377.45,230.098,-1.611,230.727,1.611,270.398,0.071,270.398,0.015,17.034,0.014,34,-106.999,0.998,0.343,-5.692e-9,-0.007,-5.829e-5,26.401,3.405,12.454,0.067,1.913,1.581,2.539,0.671,3.006e7,0,157.938,0.493,0.493,0.319,0.052,0.122,0.048,0.122,-3.113e-4,0,0,0,0,-1.425e-4,0.003,0.131,0.013,83.42,0.025,8.098,22.557,755.57,344.968,0.05,0.676
6.805,4415.131,229.309,-1.608,229.94,1.608,273.191,0.072,273.191,0.015,17.03,0.003,34,-106.999,0.998,0.412,-2.004e-8,-0.003,-3.873e-5,26.401,3.405,12.454,0.067,1.911,1.581,2.524,0.669,2.994e7,0,156.674,0.492,0.493,0.319,0.052,0.121,0.058,0.146,1.185e-4,0,0,0,0,-3.164e-5,0.003,0.131,0.013,83.331,0.018,8.108,22.45,754.586,344.903,0.05,0.678
6.855,4452.682,228.521,-1.603,229.155,1.603,275.985,0.074,275.985,0.015,17.031,0.004,34,-106.999,0.998,0.455,-1.78e-8,9.698e-4,-5.106e-5,26.401,3.405,12.454,0.067,1.91,1.581,2.513,0.667,2.981e7,0,155.382,0.492,0.493,0.319,0.052,0.121,0.064,0.16,1.995e-4,0,0,0,0,3.024e-6,0.003,0.131,0.013,83.311,0.011,7.926,22.343,753.606,344.839,0.05,0.68
6.905,4490.105,227.736,-1.598,228.372,1.598,278.779,0.075,278.779,0.015,17.033,0.001,34,-106.999,0.998,0.433,-2.825e-8,0.005,-6.04e-5,26.401,3.405,12.454,0.067,1.91,1.581,2.515,0.664,2.969e7,0,154.069,0.492,0.492,0.319,0.052,0.121,0.061,0.152,5.152e-5,0,0,0,0,8.605e-5,0.003,0.131,0.013,83.368,0.005,7.702,22.237,752.629,344.774,0.05,0.682
6.955,4527.399,226.955,-1.59,227.593,1.591,281.573,0.076,281.573,0.016,17.029,0.019,34,-106.999,0.998,0.308,1.223e-8,0.009,-6.587e-5,26.401,3.405,12.454,0.067,1.913,1.581,2.539,0.662,2.957e7,0,152.756,0.492,0.492,0.319,0.052,0.121,0.043,0.109,-2.105e-4,0,0,0,0,2.367e-4,0.003,0.131,0.013,83.494,8.945e-4,7.625,22.131,751.656,344.71,0.05,0.684
7.005,4564.565,226.177,-1.584,226.816,1.584,284.366,0.078,284.366,0.016,17.017,0.033,34,-106.999,0.998,0.212,0,0.011,-9.434e-5,26.401,3.405,12.454,0.067,1.916,1.581,2.556,0.66,2.944e7,0,151.424,0.491,0.492,0.319,0.052,0.12,0.029,0.074,1.142e-4,0,0,0,0,3.948e-4,0.003,0.131,0.013,83.672,-7.261e-5,7.222,22.025,750.686,344.646,0.05,0.685
7.055,4601.604,225.402,-1.575,226.042,1.577,287.155,0.079,287.155,0.016,16.994,0.061,34,-106.999,0.998,0.022,-3.027e-8,0.012,-9.223e-4,26.401,3.405,12.454,0.067,1.92,1.581,2.593,0.658,2.932e7,0,150.147,0.491,0.491,0.319,0.052,0.12,0.003,0.007,-3.822e-4,0,0,0,0,4.778e-4,0.003,0.131,0.013,83.882,0.002,7.087,21.92,749.719,344.582,0.05,0.687
7.105,4638.516,224.632,-1.567,225.271,1.57,289.94,0.08,289.94,0.016,16.954,0.098,34,-106.999,0.998,0.226,-5.267e-8,-0.011,-7.93e-5,26.401,3.405,12.454,0.067,1.915,1.581,2.55,0.656,2.921e7,0,148.961,0.491,0.491,0.32,0.052,0.12,0.031,0.08,4.492e-4,0,0,0,0,-4.068e-4,0.003,0.131,0.013,84.094,0.007,7.193,21.815,748.755,344.519,0.05,0.689
7.155,4675.302,223.865,-1.56,224.502,1.565,292.717,0.082,292.717,0.016,16.9,0.121,34,-106.999,0.998,0.377,0,-0.008,-5.557e-5,26.401,3.405,12.454,0.067,1.91,1.581,2.517,0.654,2.909e7,0,147.767,0.491,0.491,0.32,0.052,0.12,0.053,0.133,2.325e-4,0,0,0,0,-2.338e-4,0.003,0.131,0.013,84.27,0.015,7.061,21.71,747.795,344.455,0.05,0.691
7.205,4711.963,223.102,-1.554,223.736,1.56,295.484,0.083,295.484,0.016,16.837,0.134,34,-106.999,0.998,0.47,0,-0.005,-5.188e-5,26.401,3.405,12.454,0.067,1.908,1.581,2.497,0.651,2.897e7,0,146.579,0.491,0.491,0.32,0.052,0.119,0.066,0.165,3.839e-4,0,0,0,0,-7.357e-5,0.003,0.131,0.013,84.388,0.023,6.942,21.606,746.838,344.392,0.05,0.693
